[
    {
        "name":"СТОМАТОЛОГІЧНА КЛІНІКА ДРАГАНЧУКА",
        "address":"м. Львів, вул. Тарнавського, 109",
        "telephone":"(097) 6609367, (095) 7268855, (093) 0971038",
        "coordinates":"49.826995,24.042654",
        "image":"https://www.dlab.com.ua/firms/logo/31378.gif",
        "info":"Стоматологічна клініка Олександра Драганчука це - лікування зубів, імплантація зубів та всі види протезування, лікування пародонтозу, пародонтиту та рецесії ясен, хірургічна стоматологія.",
        "owner":"ДРАГАНЧУК О. І., ФОП",
        "postalCode":"79017",
        "email":"alex@draganchuk.com.ua , info@draganchuk.com.ua",
        "website":"www.draganchuk.com.ua"
    },
    {
        "name":"УСМІШКА, СТОМАТОЛОГІЧНА КЛІНІКА",
        "address":"м. Львів, вул. Виговського, 20б",
        "telephone":"(032) 2927676, (0800) 211529",
        "coordinates":"49.828173,23.967428",
        "cheapestService":"Прицільний рентген",
        "mostExpensiveService":"Резекція верхівки кореня",
        "image":"https://www.dlab.com.ua/firms/logo/13515.gif",
        "info":"”УСМІШКА” – клініка, яка надає повний комплекс сучасної стоматологічної допомоги для Вашої родини від найменшого до найстаршого.  Абсолютна стерильність інструментів та безболісність процедур гарантують якісне стоматологічне обслуговування.",
        "owner":"УСМІШКА, ТОВ",
        "postalCode":"79022",
        "email":"reception@esmile.com.ua",
        "website":"www.smile.lviv.ua"
    },
    {
        "name":"ЗУБОПРОТЕЗНА ЛАБОРАТОРІЯ ГЛУШКО",
        "address":"м. Львів, вул. Сахарова, 82, к. 17",
        "telephone":"(067) 6732963, (032) 2274690",
        "coordinates":"49.8209868,24.0171230",
        "image":"https://www.dlab.com.ua/firms/logo/5136.gif",
        "info":"Стоматологія, протезування, лікування, оксид цирконію, кераміка, вініри, металокераміка, протези, зубний технік, зуботехнік, зуботехнічні послуги, лікар-стоматолог, послуги стоматолога, імплантанти.",
        "postalCode":"79026",
        "owner":"Глушко Роман Іванович",
        "email":"roman_hlushko@hotmail.com",
        "website":"www.hlushko.com.ua , www.hlushko.lviv.ua"
    },
    {
        "name":"Клініка стоматології Глушко",
        "address":"м. Львів, вул. Сахарова, 82, оф. 2",
        "telephone":"(032) 2328684, (067) 3120440",
        "coordinates":"49.820245,24.017402",
        "cheapestService":"пломба із фотокомпозиту",
        "mostExpensiveService":"керамічні реставрації",
        "image":"https://www.dlab.com.ua/firms/logo/5136.gif",
        "info":"Наша концепція – це результат сімейної справи, котра була започаткованою Романом і Галиною Глушко – подружжям зубних техніків, які почали своє професійне зростання ще в далекому 1980 році в державних структурах. Потім було навчання за кордоном в Канаді, Німеччині, Польщі, як результат створення особистої не великої але продуктивної лабораторії, яка базувалась на виготовленні естетичних керамічних надбудов.",
        "postalCode":"79026",
        "owner":"Глушко Назар Іванович",
        "email":"nazar_hlushko@hotmail.com",
        "website":"www.hlushko-clinic.com"
    },
    {
        "name":"СТОМАТОЛОГІЯ",
        "address":"м. Львів, вул. Залізнична, 25",
        "telephone":"(093) 6453670, (097) 0449442, (066) 2452075, (093) 6173883",
        "coordinates":"49.848193, 23.996732",
        "image":"https://www.dlab.com.ua/firms/logo/5059.gif",
        "info":"У нашій стоматологічній клініці Ви отримаєте широкий спектр якісних стоматологічних послуг за приємною ціною. Після проведення діагностики і постановки остаточного діагнозу, Ви отримуєте план лікування і реабілітації, оптимальний для Вас по вартості і термінах.",
        "postalCode":"79057",
        "owner":"ЛІЩИНА О. М., ФОП",
        "email":"lishchyna_dentistry@ukr.net"
    },
    {
        "name":"OCULUS, МЕДИЧНИЙ ЦЕНТР",
        "address":"м. Львів, вул. Хмельницького, 144",
        "telephone":"(032) 2322227, (032) 2322229, (098) 5645275",
        "coordinates":"49.8571360,24.0467920",
        "cheapestService":"полірування зуба",
        "mostExpensiveService":"брекет-система на одну щелепу керамічна",
        "image":"https://www.dlab.com.ua/firms/logo/1358.gif",
        "info":"Медичний центр «Oculus» - багатопрофільний приватний медичний центр, створений у 2014 році на базі офтальмологічної клініки професора І. Я. Новицького. Довіра, повага, якість лікування, особистий комфорт, доступність – стали для нас базовими незмінними цінностями в роботі.",
        "postalCode":"79024",
        "owner":"ОКУЛЮС, МЕДИЧНИЙ ЦЕНТР",
        "email":"office@oculus.lviv.ua",
        "website":"www.oculus.lviv.ua"
    },
    {
        "name":"БІШ КОМПАНІ, ТОВ",
        "address":"м. Львів, просп. Червоної Калини, 57",
        "telephone":"(032) 2223716",
        "image":"https://www.dlab.com.ua/firms/logo/1547.gif",
        "info":"ТОВ ”Біш-компані” запрошує відвідати наші стоматологічні кабінети. До Ваших послуг: лікар-стоматолог терапевт, лікар-стоматолог ортопед, лікар-стоматолог хірург, лікар-стоматолог ортодонт, лікар-стоматолог пародонтолог, лікар-стоматолог імплантолог, стоматолог.",
        "postalCode":"79070",
        "owner":"Гумінська Марина Олександрівна",
        "email":"bishstom@rambler.ru"
    },
    {
        "name":"1-А МІСЬКА КОМУНАЛЬНА СТОМАТОЛОГІЧНА ПОЛІКЛІНІКА",
        "address":"м. Львів, просп. Шевченка, 24",
        "telephone":"(032) 2612056, (032) 2612057",
        "coordinates":"49.836185,24.031565",
        "info":"Всі види стоматологічних послуг, спеціалісти високої кваліфікації, обслуговування пільгових категорій населення, комплексне ведення пацієнта, сучасне обладнання, високі стандарти в роботі.",
        "postalCode":"79005",
        "email":"1sp_uoz_lviv@ukr.net"
    },
    {
        "name":"3-Я КОМУНАЛЬНА МІСЬКА СТОМАТОЛОГІЧНА ПОЛІКЛІНІКА",
        "address":"м. Львів, вул. Петлюри, 17",
        "telephone":"(032) 2922330, (032) 2922382, (032) 2922594",
        "coordinates":"49.8221210,23.9799670",
        "info":"Комунальна 3-тя стоматологічна поліклініка надає допомогу мешканцям Залізничного району м.Львова. Кількість населення: всього 146,800тис, доросле населення – 119,100тис, дитяче населення – 27,700тис, підлітки – 6,925тис. Мета діяльності – забезпечення мешканців кваліфікованою стоматологічною допомогою.",
        "postalCode":"79021",
        "email":"3sp_uoz_lviv@ukr.net"
    },
    {
        "name":"33-Й ЗУБ, СТОМАТОЛОГІЯ",
        "address":"м. Львів, вул. Володимира Великого, 50",
        "telephone":"(032) 2340324, (067) 6727474",
        "coordinates":"49.811888,23.99057",
        "info":"”Стоматологія 33-й зуб” надає широкий спектр стоматологічних послуг від комплексної профілактики стоматологічних захворювань та попередження захворювань ясен до до професійного терапевтичного лікування та протезування.",
        "postalCode":"79053",
        "email":"kontadent@gmail.com"
    },
    {
        "name":"4-А СТОМАТОЛОГІЧНА ПОЛІКЛІНІКА",
        "address":"м. Львів, вул. Симоненка, 6а",
        "telephone":"(032) 2636027, (032) 2635211, (032) 2638108",
        "coordinates":"49.80888,23.986684",
        "info":"Стоматологічна поліклініка розташована в одному із великих житлових масивів Львова по вулиці Василя Симоненка, 6а і обслуговує населення Франківського та частину Сихівського районів міста. До сфери обслуговування належить 19 середніх шкіл, 3 спецшколи, 3 початкові школи, 22 дитячі дошкільні установи, 4 коледжі, три ліцеї.",
        "postalCode":"79071",
        "email":"4sp_uoz_lviv@ukr.net",
        "website":"http://4stomat.com.ua/"
    },
    {
        "name":"5-А КОМУНАЛЬНА СТОМАТОЛОГІЧНА ПОЛІКЛІНІКА",
        "address":"м. Львів, вул. Замарстинівська, 39",
        "telephone":"(032) 2523545, (032) 2523344, (032) 2523367",
        "coordinates":"49.8537570,24.0278650",
        "info":"Комунальна 5-та стоматологічна поліклініка м. Львова розташована у двох різних будівлях за адресами:вул.Замарстинівська,39 та вул.Промислова,18",
        "postalCode":"79058",
        "email":"5sp_uoz_lviv2007@ukr.net",
        "website":"https://sites.google.com/site/k5mspol/"
    },
    {
        "name":"AХOДЕНТ",
        "address":"м. Львів, вул. Бандери, 7",
        "telephone":"(032) 2612891",
        "coordinates":"49.834519,24.017609",
        "info":"Стоматологічні клініки і центри",
        "postalCode":"79013"
    },
    {
        "name":"DENTAL CARE, СТОМАТОЛОГІЯ",
        "address":"м. Львів, вул. Жовківська, 14/5",
        "telephone":"(032) 2522360, (096) 3076880",
        "coordinates":"49.855321,24.035188",
        "info":"Стоматологічні клініки і центри",
        "postalCode":"79019",
        "owner":"СТАСІВ БОГДАНА АНТОНІВНА, ФО-П",
        "email":"proodent3@gmail.com"
    },
    {
        "name":"PROCOSMETIC, КЛІНІКА",
        "address":"м. Львів, просп. Чорновола, 45а",
        "telephone":"(032) 2316383",
        "coordinates":"49.851459,24.023166",
        "info":"пластична хірургія, ліпосакція, ринопластика",
        "owner":"PROCOSMETIC, ПРОЕКТ",
        "postalCode":"79058",
        "email":"ioak77@gmail.com",
        "website":"www.pro-clinic.com"
    },
    {
        "name":"ZUBOTEH",
        "address":"м. Львів, вул. Снопківська, 34",
        "telephone":"(067) 7799949",
        "coordinates":"49.826318,24.035926",
        "info":"Стоматологічні матеріали та обладнання",
        "postalCode":"79011"
    },
    {
        "name":"ІЗІДА, ПП",
        "address":"м. Львів, вул. Вагилевича, 7",
        "telephone":"(032) 2753720",
        "coordinates":"49.832892,24.041081",
        "postalCode":"79017"
    },
    {
        "name":"ІМІДЕНТ, СТОМАТОЛОГІЧНА КЛІНІКА",
        "address":"м. Львів, вул. Любінська, 101, к. 76",
        "telephone":"(032) 2400986, (067) 7188106",
        "coordinates":"49.820751,23.970590",
        "image":"https://www.dlab.com.ua/firms/logo/20916.gif",
        "info":"Стоматологічна клініка IMIDENT була заснована та успішно розпочала свою роботу у 2002 році. З 2007 року клініка працює у затишному спальному районі міста Львова, на вулиці Любіньській. Філософія клініки: ”робимо так, як хотіли щоб і нам зробили”.",
        "owner":"ГЕРЧУК І. В., ФОП",
        "postalCode":"79054",
        "email":"wien07@i.ua",
        "website":"www.imident.com.ua"
    },
    {
        "name":"ІНСПЕ, ТОВ",
        "address":"м. Львів, вул. Братів Міхновських, 42",
        "telephone":"(032) 2948399, (032) 2403705",
        "coordinates":"49.8431540,24.0035460",
        "info":"Компанія ІнСпе на стоматологічному ринку України від 1997 року. Впродовж всього часу роботи компанія не зраджує своєму головному принципу – дотримуватися найвищих стандартів у всьому, що пропонує для своїх клієнтів, котрих вважає професіоналами у стоматології. У всіх напрямках своєї діяльності ми намагаємося бути на крок попереду. Ми прагнемо аби від роботи, запропонованими нами продуктами лікарі і зубні техніки отримували професійне задоволення, а пацієнти – комфорт і справді якісне лікування.",
        "postalCode":"79018",
        "email":"info@inspe.com.ua",
        "website":"www.inspe.com.ua"
    },
    {
        "name":"АВЕРС-АРТ, СТОМАТОЛОГІЧНА КЛІНІКА",
        "address":"м. Львів, вул. Виговського, 29а",
        "telephone":"(032) 2459858, (050) 4302255",
        "coordinates":"49.822344,23.968237",
        "info":"Продукція, послуги: естетична стоматологія, профілактика, імплантологія, ендодонія, ортодонтія, пародонтологія, загальне знечуленн, стоматологія для вагітних, дитяча стоматологія.",
        "postalCode":"79022",
        "email":"aversart@gmail.com"
    },
    {
        "name":"АДНАН ДЕНТ, СТОМАТОЛОГІЧНИЙ КАБІНЕТ",
        "address":"м. Львів, вул. Манастирського, 2, к. 1",
        "telephone":"(032) 2447620",
        "coordinates":"49.7986204,24.0616135",
        "info":"Стоматологічний кабінет",
        "postalCode":"79066"
    },
    {
        "name":"АКВАРЕЛЬ, СТУДІЯ ОРДОНТОЛОГІЇ ТА ІМПЛАНТОЛОГІЇ",
        "address":"м. Львів, вул. Дністерська, 27, оф. 405",
        "telephone":"(032) 2706574, (097) 0040050",
        "coordinates":"49.815364,24.047891",
        "cheapestService":"глибоке фторування зубів",
        "mostExpensiveService":"лікування незнімною технікою",
        "info":"Основні напрямки роботи: 1. Дитяча стоматологія - як основна ланка профілактики зубо-щелепових аномалій, та інших стоматологічних і соматичних захворювань. 2. Ортодонтія: - дитяча - лікування зубощелепових аномалій, - доросла - передімплантаційна та передпротезна підготовка, лікування парад онтологічних проблем. Повний арсенал найсучаснішої ортодонтичної апаратури робить наше лікування максимально комфортним та ефективним. 3. Естетично-реставраційний напрямок: - вініри, - мікропротезування керамічними вкладками, - керамічні коронки. Відсутність у нашій практиці так званих ”пломб”, а застосування керамічних мікропротезів дозволяє добитися бездоганної естетики та функції максимальної наближеної до природнього зуба. 4. Хірургія: - 4D імплантологія, можливість застосування в складних несприятливих клінічних умовах з відсутністю достатньої пропозиції кістки з негативним протезуванням - ”зуби за 3 дні”, новаторська технологія PRGF-Endored - регенерації тканин. Перша 100% аутологічна технологія на ринку. Використання факторів росту, які виділяються з власної крові. примінення лазера.",
        "postalCode":"79000",
        "email":"ivantsiv_a@yahoo.com",
        "website":"www.stomakvarel.lviv.ua/"
    },
    {
        "name":"АСТРУМ, МЕДИЧНА КЛІНІКА",
        "postalCode":"82402",
        "address":"Львівська обл., м. Стрий, вул. Шевченка, 3",
        "telephone":"(03245) 50234, (050) 0726675"
    },
    {
        "name":"АУРА ДЕНТ, СТОМАТОЛОГІЧНА КЛІНІКА",
        "address":"м. Львів, вул. Нечуя-Левицького, 13",
        "telephone":"(067) 5950222, (093) 2015751",
        "coordinates":"49.832664,24.016019",
        "info":"Стоматологічна клініка",
        "postalCode":"79013",
        "email":"frog7777@mail.ru"
    },
    {
        "name":"БІОІМПЛАНТ СЕРВІС",
        "address":"м. Львів, вул. Донцова, 8/2",
        "telephone":"(032) 2750991",
        "coordinates":"49.839137,24.0411",
        "info":"Стоматологічні поліклініки | Стоматологічні клініки і центри",
        "postalCode":"79008",
        "email":"bioimplant.servis@mail.ru"
    },
    {
        "name":"БАЛАНДА, ТОВ",
        "address":"м. Львів, вул. Володимира Великого, 18",
        "telephone":"(032) 2644427, (098) 6121596",
        "coordinates":"49.810614,24.002751",
        "info":"Німецька фірма « AMOENA» являється лідером у виробництві і реалізації сучасних засобів екзопротезування у Європі і в цілому світі.",
        "postalCode":"79053",
        "email":"balanda.lviv@gmail.com"
    },
    {
        "name":"ВІЙСЬКОВА СТОМАТОЛОГІЧНА ПОЛІКЛІНІКА",
        "address":"м. Львів, вул. Левицького, 75А",
        "telephone":"(032) 2761977",
        "coordinates":"49.832194,24.045833",
        "info":"Військова стоматологічна клініка",
        "postalCode":"79017"
    },
    {
        "name":"ВІТА ПУЕРІ, ПЕДІАТРИЧНА КЛІНІКА",
        "address":"м. Львів, вул. Щирецька, 36",
        "telephone":"(067) 6754334",
        "coordinates":"49.811745, 23.974700",
        "info":"У нашій клініці до ваших послуг консультації спеціалістів: • ПЕДІАТРА • АЛЕРГОЛОГА • ГАСТРОЕНТЕРОЛОГА • УРОЛОГА • СТОМАТОЛОГА • ОТОЛАРИНГОЛОГА • НЕВРОПАТОЛОГА",
        "owner":"ВІТА ПУЕРІ, ПП",
        "postalCode":"79071",
        "email":"vitapueri171107@ukr.net",
        "website":"www.facebook.com/vitapueri/"
    },
    {
        "name":"ВАША СТОМАТОЛОГІЯ",
        "address":"м. Львів, вул. Короленка, 4, оф. 3",
        "telephone":"(032) 2257669, (067) 9071878",
        "coordinates":"49.841664,24.041567",
        "info":"Послуги: - терапія - дитячий прийом - профілактичні заходи - імплантологія - ортопедія - ендодонтія - ортодонтія - хірургія - відбілювання зубів - парадонтологія",
        "postalCode":"79000",
        "website":"www.dantyst.lviv.ua"
    },
    {
        "name":"ГАЙ, СТОМАТОЛОГІЧНА КЛІНІКА, МП",
        "address":"м. Львів, вул. Газова, 28, к. 19",
        "telephone":"(032) 2247386",
        "coordinates":"49.8487757,24.0225795",
        "info":"Стоматологічна клініка",
        "postalCode":"79058"
    },
    {
        "name":"ГАЛДЕНТС ПЛЮС, ПП",
        "address":"м. Львів, вул. Городоцька, 85",
        "telephone":"(032) 2580298, (067) 6738021",
        "coordinates":"49.8393420,24.0103710",
        "info":"Стоматологічні клініки і центри",
        "postalCode":"79016",
        "email":"olegokorokov@rambler.ru"
    },
    {
        "name":"ГАЛДЕНТС, СТОМАТОЛОГІЧНА КЛІНІКА",
        "owner":"ГАЛДЕНТС, ТОВ",
        "postalCode":"79013",
        "address":"м. Львів, вул. Чупринки, 33",
        "telephone":"(032) 2373448, (032) 2377033, (097) 5939657",
        "coordinates":"49.831386,24.010511",
        "email":"galdents@gmail.com",
        "website":"http://galdents.com/",
        "info":"Стоматологія «Галдентс» пропонує своїм пацієнтам послуги таких напрямків: - Терапевтична стоматологія - Хірургічна стоматологія - Ортодонтія - Відбілювання - Ортопедична"
    },
    {
        "name":"ГЕЛІОДЕНТ, СТОМАТОЛОГІЧНА КЛІНІКА, ТОВ",
        "postalCode":"79035",
        "address":"м. Львів, вул. Липова Алея, 9",
        "telephone":"(032) 2704535, (067) 6754970",
        "coordinates":"49.819792,24.053999",
        "website":"http://geliodent.com/",
        "info":"Всі види стоматологічних послуг."
    },
    {
        "name":"ГЛОРІЯ",
        "postalCode":"79013",
        "address":"м. Львів, вул. Єфремова, 25",
        "telephone":"(032) 2376934",
        "coordinates":"49.832438,24.008347",
        "info":"Стоматологічні клініки і центри"
    },
    {
        "name":"ГОРИЦВІТ, МЕДИЧНИЙ ЦЕНТР",
        "postalCode":"79017",
        "address":"м. Львів, вул. Левицького, 110",
        "telephone":"(067) 7252767, (032) 2761586",
        "email":"med_gorycvit@i.ua",
        "coordinates":"49.8306650,24.0470710",
        "info":"Стоматологічні клініки і центри"
    },
    {
        "name":"ГУК ДЕНТА Л, СТОМАТОЛОГІЧНИЙ ЦЕНТР, ТОВ",
        "postalCode":"79034",
        "address":"м. Львів, вул. Угорська, 3",
        "telephone":"(032) 2709121, (067) 3328034",
        "coordinates":"49.8126040,24.0408150",
        "email":"guk.dental@mail.ru",
        "info":"- Діагностика. - Профілактика та лікування захворювань порожнини рота. - Раціональне протезування. - Ортодонтія (брекет-система, корекція зубних рядів). - Безпечне відбілювання. -"
    },
    {
        "name":"ДЕНОН ДЕНТАЛ, ТОВ",
        "postalCode":"79058",
        "address":"м. Львів, просп. Чорновола, 45а корп. 5",
        "telephone":"(097) 9606527, (032) 2324095",
        "email":"info@denondental.com",
        "website":"www.denondental.com",
        "coordinates":"49.852173,24.022646",
        "info":"Ми спеціалізуємось не тільки на продажах стоматологічної та зуботехнічної продукції, а й на навчальних програмах для зубних техніків та лікарів. У нас широкий досвід"
    },
    {
        "name":"ДЕНТ-ОПТИК, ФІРМА, ТОВ",
        "postalCode":"79005",
        "address":"м. Львів, вул. Франка, 8а",
        "telephone":"(032) 2356414",
        "coordinates":"49.852173,24.022646",
        "email":"dent-optik@mail.ru",
        "info":"Корекція зору"
    },
    {
        "name":"ДЕНТІКО, СТОМАТОЛОГІЧНА КЛІНІКА",
        "postalCode":"79007",
        "address":"м. Львів, вул. Шолом-Алейхема, 10",
        "telephone":"(032) 2986666",
        "coordinates":"49.843964,24.020807",
        "info":"Комплексна професійна гігієна та профілактика стоматологічних захворювань, попередження та лікування захворювань ясен. Лікування захворювань пародонту. Професійне"
    },
    {
        "name":"ДЕНТА МІК, СТОМАТОЛОГІЧНИЙ КАБІНЕТ",
        "postalCode":"79026",
        "address":"м. Львів, вул. Стрийська, 98",
        "coordinates":"49.7880440,24.0219640",
        "telephone":"(032) 2955022",
        "info":"Стоматологічні клініки і центри"
    },
    {
        "name":"ДЕНТА-СУПЕР, СТОМАТОЛОГІЯ",
        "postalCode":"79007",
        "address":"м. Львів, вул. Фурманська, 12",
        "coordinates":"49.8435599,24.0245831",
        "telephone":"(032) 2403399",
        "info":"Клініка «Дента-Супер» знаходиться у центрі Львова, де висококваліфіковані лікарі надають послуги по таким напрямкам, як терапевтична, хірургічна і естетична стоматологія."
    },
    {
        "name":"ДЕНТАФОРТ, СТОМАТОЛОГІЧНА КЛІНІКА",
        "postalCode":"79026",
        "address":"м. Львів, вул. Сахарова, 43, оф. 301",
        "coordinates":"49.821113,24.017696",
        "telephone":"(032) 2977979, (067) 9335555",
        "email":"office@dentafort.com.ua",
        "website":"www.dentafort.com.ua",
        "info":"«ДентаФорт» – це стоматологічна клініка, що надає повний спектр послуг щодо лікування, відбілювання та протезування зубів."
    },
    {
        "name":"ДЕНТИСТ-СЕРВІС, ЗУБОТЕХНІЧНА ЛАБОРАТОРІЯ, ТОВ",
        "postalCode":"79010",
        "address":"м. Львів, вул. Пекарська, 69б",
        "coordinates":"49.837751,24.046412",
        "telephone":"(032) 2769412",
        "email":"dentserv@mail.lviv.ua",
        "info":"Зуботехнічні роботи."
    },
    {
        "name":"ДОКТОР ГУК, СТОМАТОЛОГІЧНА КЛІНІКА",
        "postalCode":"79013",
        "address":"м. Львів, вул. Вербицького, 10",
        "coordinates":"49.833614,24.018118",
        "telephone":"(032) 2613643, (067) 3202411",
        "email":"skdoktorguk@gmail.com"
    },
    {
        "name":"ДЭНТОРУС",
        "postalCode":"79008",
        "address":"м. Львів, вул. Барвінських, 6",
        "coordinates":"49.845808,24.041852",
        "telephone":"(0322) 601505, (067) 7405993",
        "info":"Стоматологічні клініки і центри"
    },
    {
        "name":"ЕКСПЕРТ, СТОМАТОЛОГІЧНА КЛІНІКА",
        "postalCode":"79041",
        "address":"м. Львів, вул. Окружна, 94а",
        "coordinates":"49.824943,23.988934",
        "telephone":"(068) 4911911, (073) 4911911",
        "email":"dentalclinicexpert@gmail.com",
        "website":"http://expertclinic.com.ua/",
        "info":"- Лікування - Естетична стоматологія - Ортодонтія - Протезування - Дитяча стоматологія - Хірургія"
    },
    {
        "name":"ЕСТЕТ-D, СТОМАТОЛОГІЧНА КЛІНІКА",
        "postalCode":"79039",
        "address":"м. Львів, вул. Залізнична, 7",
        "coordinates":"49.842318,23.998159",
        "telephone":"(032) 2328465",
        "info":"Стоматологічні клініки і центри"
    },
    {
        "name":"ЕСТЕТИКА, СТОМАТОЛОГІЧНА КЛІНІКА, ПП",
        "postalCode":"79034",
        "address":"м. Львів, вул. Угорська, 10, к. 105",
        "coordinates":"49.811456,24.041393",
        "telephone":"(032) 2702168",
        "info":"Стоматологічні клініки і центри"
    },
    {
        "name":"ЗАЗАДЕНТ, СТОМАТОЛОГІЧНА КЛІНІКА",
        "owner":"ЗАЗА, ПП",
        "postalCode":"79057",
        "address":"м. Львів, вул. Кременецька, 2",
        "coordinates":"49.828675,23.996360",
        "telephone":"(032) 2393053",
        "email":"zazadent@meta.ua"
    },
    {
        "name":"КАФЕДРА ХІРУРГІЇ І ОРТОПЕДИЧНОЇ СТОМАТОЛОГІЇ",
        "postalCode":"79032",
        "address":"м. Львів, вул. Пасічна, 102",
        "coordinates":"49.815315,24.077050",
        "telephone":"(032) 2703079, (032) 2707179"
    },
    {
        "name":"КЕБА М. В., ФОП",
        "postalCode":"79005",
        "address":"м. Львів, вул. Стефаника, 11",
        "coordinates":"49.836839,24.026679",
        "telephone":"(032) 2610057",
        "info":"Стоматологічні клініки і центри"
    },
    {
        "name":"КЕСБІ, СТОМАТОЛОГІЧНА КЛІНІКА",
        "postalCode":"79044",
        "address":"м. Львів, вул. Єфремова, 75",
        "coordinates":"49.829120,24.003107",
        "telephone":"(032) 2953830, (067) 1724000",
        "email":"irastom@ukr.net",
        "info":"Пропонуємо наступні види лікування: - естетична стоматологія - профілактика - терапевтична стоматологія - диагностика - протезування - імплантація - пародонтологія -"
    },
    {
        "name":"КЛІНІКА АВТОРСЬКОЇ СТОМАТОЛОГІЇ МАР’ЯНИ МЕЛЬНИЧУК",
        "postalCode":"79005",
        "address":"м. Львів, вул. Франка, 23/43",
        "coordinates":"49.835361,24.035148",
        "telephone":"(032) 2603060, (050) 3155903",
        "email":"office@laserdentist.com.ua",
        "website":"http://laserdentist.com.ua/",
        "info":"Стоматологічні послуги. Лікування лазером Профілактика Оклюзія Ортодонтія Парадонтологія Ендодонтичне лікування Імплантологія Відбілювання Дитяча стоматологія"
    },
    {
        "name":"КЛІНІКА ДОКТОРА ГАУКА, СТОМАТОЛОГІЯ",
        "postalCode":"79044",
        "address":"м. Львів, вул. Моршинська, 10, к. 1а",
        "coordinates":"49.827955,24.007363",
        "telephone":"(032) 2373706",
        "email":"gauk@litech.net",
        "website":"www.gauk.com.ua",
        "info":"Стоматологічні клініки і центри"
    },
    {
        "name":"КЛІНІКА ЗАБЛОЦЬКОГО, СТОМАТОЛОГІЧНИЙ ЦЕНТР, ТОВ",
        "postalCode":"79005",
        "address":"м. Львів, вул. Коперника, 20",
        "coordinates":"49.838371,24.026321",
        "telephone":"(098) 2709911, (067) 5209911",
        "email":"klinika@zablotskyy.com , lviv.kinder@gmail.com",
        "website":"www.zablotskyy.com",
        "info":"Індивідуальний підхід до стоматологічних проблем дорослих і дітей: лікування всіх захворювань зубів і ясен; корекція форми зубів; встановлення імплантів; панорамний"
    },
    {
        "name":"КЛІНІКА ПЛЮС, СТОМАТОЛОГІЧНА КЛІНІКА, ПП",
        "postalCode":"79069",
        "address":"м. Львів, просп. Червоної Калини, 68",
        "coordinates":"49.790538,24.056535",
        "telephone":"(032) 2230114",
        "info":"Стоматологічні клініки і центри"
    },
    {
        "name":"КЛІНІКА СТОМАТОЛОГІЇ ВІЛЬШИНСЬКИХ",
        "address":"м. Львів, вул. Куліша, 43",
        "coordinates":"49.848481,24.024034",
        "telephone":"(068) 136218, (066) 2258185",
        "email":"vilshynsky@gmail.com",
        "website":"http://vilshynsky.com.ua",
        "info":"Сімейна стоматологія для всієї родини. Цілодобова стоматологія."
    },
    {
        "name":"КЛІНІКА ЮРІЯ ПІШАКА",
        "postalCode":"79015",
        "address":"м. Львів, вул. Героїв УПА, 76",
        "coordinates":"49.830906,23.995243",
        "telephone":"(032) 2352764, (067) 6756053",
        "info":"Стоматологічні клініки і центри"
    },
    {
        "name":"КОГУТ І КОГУТ, КЛІНІКА СТОМАТОЛОГІЇ",
        "postalCode":"79000",
        "address":"м. Львів, вул. Герцена, 6/1а",
        "coordinates":"49.835975,24.033516",
        "telephone":"(050) 3767678, (067) 6731763",
        "email":"Kohut@kohutdental.com.ua",
        "website":"http://kohutdental.com.ua",
        "info":"Повний спектр стоматологічних послуг, включно з дитячою стоматологією, ортодонтією, імплантацією та висококласною хірургією. Лікування проводиться за найсучаснішими"
    },
    {
        "name":"КОЛІБРІ-Х",
        "postalCode":"79052",
        "address":"м. Львів, вул. Гніздовського, 6",
        "coordinates":"49.841297,23.969270",
        "telephone":"(032) 2676061",
        "info":"Стоматологічні клініки і центри"
    },
    {
        "name":"КОННЕКТ ІМПЛАНТ СИСТЕМ",
        "postalCode":"79060",
        "address":"м. Львів, вул. Княгині Ольги, 99",
        "coordinates":"49.817528,24.003129",
        "telephone":"(032) 2955562, (067) 6729998",
        "email":"info@connect-implants.com",
        "website":"www.connect-implants.com",
        "info":"Система імплантатів дентальних ”CONNECT”"
    },
    {
        "name":"КОРАЛ, МЕДИЧНИЙ ЦЕНТР",
        "image":"https://www.dlab.com.ua/firms/logo/20282.gif",
        "owner":"ГАЛМАК, ПП",
        "postalCode":"79005",
        "address":"м. Львів, вул. Дудаєва, 19, прим. 2",
        "coordinates":"49.835820,24.028973",
        "telephone":"(032) 2403502, (032) 2611067",
        "email":"medcenter.coral@gmail.com",
        "website":"http://coraldental.com.ua/",
        "info":"Медичний центр ”Корал” пропонує послуги з терапевтичної, ортопедичної та хірургічної стоматології, лікування зубів за страховим полісом."
    },
    {
        "name":"КУПЕ",
        "postalCode":"79037",
        "address":"м. Львів, вул. Грінченка, 6",
        "coordinates":"49.872700,24.052081",
        "telephone":"(032) 2247654",
        "info":"Стоматологічні клініки і центри"
    },
    {
        "name":"ЛІЕЙ-ДЕНТ, СТОМАТОЛОГІЧНА КЛІНІКА",
        "postalCode":"79049",
        "address":"м. Львів, просп. Червоної Калини, 64",
        "coordinates":"49.791339,24.057253",
        "telephone":"(032) 2328117, (098) 0344993",
        "email":"liej-dent@ukr.net",
        "website":"www.liej-dent.com.ua",
        "info":"Стоматологічні послуги"
    },
    {
        "name":"ЛІКАР-СТОМАТОЛОГ ВІЛЬШИНСЬКИЙ ЮРІЙ БРОНІСЛАВОВИЧ",
        "postalCode":"79058",
        "address":"м. Львів, вул. Куліша, 46",
        "coordinates":"49.849549,24.024806",
        "telephone":"(068) 1362185, (066) 2258185",
        "info":"Послуги стоматолога цілодобово: - Профілактика порожнини роту: зняття зубних відкладень та зубного каменю за допомогою п’єзоскалера і содоструйного апарату, герметизація"
    },
    {
        "name":"ЛІКДЕНС, ПП",
        "postalCode":"79020",
        "address":"м. Львів, вул. Панча, 16",
        "coordinates":"49.863479,24.011887",
        "telephone":"(067) 3925237",
        "info":"Стоматологічні клініки і центри"
    },
    {
        "name":"ЛІКОДЕНС, СТОМАТОЛОГІЧНА КЛІНІКА, ПП",
        "postalCode":"79066",
        "address":"м. Львів, вул. Антоненка-Давидовича, 7, к. 37",
        "coordinates":"49.792460,24.061737",
        "telephone":"(032) 2446002, (067) 9897261, (097) 6615488"
    },
    {
        "name":"ЛЕСЯ + РОМА, ПП",
        "postalCode":"79053",
        "address":"м. Львів, вул. Володимира Великого, 18, оф. 413",
        "coordinates":"49.810621,24.002754",
        "telephone":"(032) 2340464"
    },
    {
        "name":"ЛЬВІВМЕДСЕРВІС, ПП",
        "postalCode":"79052",
        "address":"м. Львів, вул. Сяйво, 11",
        "coordinates":"49.792460,24.061737",
        "telephone":"(032) 2441429",
        "info":"Стоматологічні клініки і центри"
    },
    {
        "name":"М. Р.С. СТОМАТОЛОГІЯ",
        "postalCode":"79017",
        "address":"м. Львів, вул. Зелена, 46, к. 2",
        "coordinates":"49.810621,24.002754",
        "telephone":"(032) 2754392, (067) 7665041",
        "email":"info@mrs-dent.com.ua",
        "website":"http://mrs-dent.com.ua/",
        "info":"Імплантологія, дитяча стоматологія, рентгенодіагностика, лікування зубів, протезування, реставрація"
    },
    {
        "name":"МІЙ СТОМАТОЛОГ, СТОМАТОЛОГІЧНА КЛІНІКА",
        "postalCode":"79066",
        "address":"м. Львів, вул. Сихівська, 7",
        "coordinates":"49.793872,24.063518",
        "telephone":"(032) 2210461",
        "info":"Ортодонтія | Стоматологічні клініки і центри"
    },
    {
        "name":"МАРІДЕНТ",
        "postalCode":"79049",
        "address":"м. Львів, вул. Антонича, 10",
        "coordinates":"49.785168,24.067877",
        "telephone":"(032) 2322814, (096) 1166883, (095) 9447748",
        "email":"m.gubycjka@gmail.com",
        "info":"Широкий спектр стоматологічних послуг."
    },
    {
        "name":"МЕDIСI, СТОМАТОЛОГИЧЕСКАЯ КЛИНИКА",
        "owner":"MEDICI, ПРИВАТНА СТОМАТОЛОГІЯ, ТОВ",
        "postalCode":"79007",
        "address":"м. Львів, вул. Гоголя, 10/1",
        "coordinates":"49.793872,24.063518",
        "telephone":"(032) 2403716, (067) 6722506",
        "email":"medicilviv@gmail.com",
        "website":"www.medici.com.ua",
        "info":"Кваліфікована консультація; професійна гігієна; лікування, протезування, імплантація; корекція прикусу дітям та дорослим"
    },
    {
        "name":"МЕДОДЕНТ, СТОМАТОЛОГІЧНА КЛІНІКА",
        "postalCode":"79005",
        "address":"м. Львів, вул. Богомольця, 3, оф. 2",
        "coordinates":"49.837562,24.035738",
        "telephone":"(032) 2751115, (032) 2764079",
        "email":"m_shulgan@yahoo.com",
        "info":"Всі види стоматологічних послуг."
    },
    {
        "name":"ММ ПЛЮС",
        "postalCode":"79038",
        "address":"м. Львів, вул. Пасічна, 36",
        "coordinates":"49.830918,24.066949",
        "telephone":"(032) 2512039",
        "email":"info@mm-plus.com.ua",
        "website":"http://mm-plus.net/",
        "info":"Ексклюзивний представник в Україні відомої швейцарської фірми ”Geistlich Pharma AG” - світового лідера по випуску біоматеріалів, представляє на українському ринку: - матеріал"
    },
    {
        "name":"ММ, ЦЕНТР СТОМАТОЛОГІЧНОЇ ІМПЛАНТАЦІЇ ТА ПРОТЕЗУВАННЯ",
        "postalCode":"79038",
        "address":"м. Львів, вул. Пасічна, 36а",
        "coordinates":"49.830918,24.066949",
        "telephone":"(032) 2712182, (032) 2514097",
        "email":"mm_clinic@ukr.net",
        "info":"Кваліфіковані консультації; зняття зубних відкладень; лікування, реставрація; протезування, імплантація; корекція прикусу дітям та дорослим, рентгенографія, комп’ютерна томографія."
    },
    {
        "name":"ММЛАБ, ЗУБОТЕХНІЧНА ЛАБОРАТОРІЯ",
        "owner":"ММЛАБ, ЗУБОТЕХНІЧНА ЛАБОРАТОРІЯ, ТОВ",
        "postalCode":"79014",
        "address":"м. Львів, вул. Котика, 4",
        "coordinates":"49.835966,24.059639",
        "telephone":"(032) 2601464, (096) 4207806, (032) 2601464",
        "email":"info@mmlab.com.ua",
        "website":"www.mmlab.com.ua",
        "info":"Зуботехнічна лабораторія запрошує до співпраці лікарів, стоматологічні клініки, зубних техніків. Виготовлення знімних, умовно знімних та незнімних конструкцій будь-якої"
    },
    {
        "name":"МОДУЛЬ-ДЕНТ, ТОВ",
        "postalCode":"79017",
        "address":"м. Львів, вул. Тарнавського, 26, к. 20",
        "coordinates":"49.830629,24.038960",
        "telephone":"(032) 2763593",
        "info":"Медичні лабораторії"
    },
    {
        "name":"НАКОНЕЧНА ОЛЕНА ГРИГОРІВНА, СТОМАТОЛОГ",
        "owner":"НАКОНЕЧНА ОЛЕНА ГРИГОРІВНА, ФОП",
        "postalCode":"79000",
        "address":"м. Львів, вул. Кондукторська, 20 А",
        "coordinates":"49.830936,23.980451",
        "telephone":"(032) 2329591"
    },
    {
        "name":"НЕСТОРКЛІНІК, МІЖНАРОДНИЙ МЕДИЧНО-НАВЧАЛЬНИЙ ЦЕНТР СТОМАТОЛОГІЇ ТА КОСМЕТОЛОГІЇ",
        "postalCode":"79022",
        "address":"м. Львів, вул. Городоцька, 287",
        "coordinates":"49.829290,23.962544",
        "telephone":"(098) 7778899, (032) 2621877",
        "email":"info@nestorclinic.com",
        "website":"http://nestorclinic.com/"
    },
    {
        "name":"НОРМАКОМ, ВИРОБНИЧО-КОМЕРЦІЙНЕ ПІДПРИЄМСТВО, ТОВ",
        "postalCode":"79016",
        "address":"м. Львів, вул. Городоцька, 85",
        "coordinates":"49.829290,23.962534",
        "telephone":"(032) 2377660, (032) 2580507",
        "email":"normacom@meta.ua",
        "info":"Стоматологічні матеріали. Стоматологічне обладнання. Стоматологічний інструментарій. Медична техніка. Ремонт та наладка стоматологічного обладнання."
    },
    {
        "name":"ОБЛАСНА СТОМАТОЛОГІЧНА ПОЛІКЛІНІКА",
        "postalCode":"79010",
        "address":"м. Львів, вул. Пекарська, 69а",
        "coordinates":"49.836551,24.048251",
        "telephone":"(032) 2755561, (032) 2755560, (032) 2755602"
    },
    {
        "name":"ОЛДЕНТ, СТОМАТОЛОГІЧНА КЛІНІКА",
        "owner":"ОЛДЕНТ, ПП",
        "postalCode":"79008",
        "address":"м. Львів, вул. Лесі Українки, 35, к. 10а",
        "coordinates":"49.843747,24.032278",
        "telephone":"(032) 2354941, (032) 2357377, (067) 7124702",
        "email":"oles.zubrytskyy@gmail.com",
        "info":"Стоматологічні клініки і центри"
    },
    {
        "name":"ОЛМЕД, МЕДИЧНИЙ ЦЕНТР",
        "postalCode":"79037",
        "address":"м. Львів, вул. Хмельницького, 212",
        "coordinates":"49.868308,24.057624",
        "telephone":"(032) 2943257, (067) 9031998",
        "email":"olmed.lviv@yahoo.com",
        "info":"Гінекологія, ультразвукова діагностика, стоматологія."
    },
    {
        "name":"ОРТО-ЛАЙН, ТОВ",
        "postalCode":"79005",
        "address":"м. Львів, вул. Петрушевича, 3, оф. 420",
        "coordinates":"49.849747,24.032278",
        "telephone":"(032) 2255975, (067) 3141793",
        "email":"ortoline@ortoline.com.ua",
        "website":"www.ortoline.com.ua",
        "info":"Орто-Лайн - простір ортодонтії. Офіційний ексклюзивний представник в Україні: -GAC (США), весь спектр ортодонтичної продукції, відомої в багатьох країнах світу розумним"
    },
    {
        "name":"ОРТОДЕНТ-АСИСТАНС, МЕДИЧНИЙ ЦЕНТР",
        "postalCode":"79016",
        "address":"м. Львів, вул. Замкнена, 6",
        "coordinates":"49.868308,24.057624",
        "telephone":"(032) 2970747",
        "email":"ortodentlviv@gmail.com"
    },
    {
        "name":"ПАРОДЕНТ, СТОМАТОЛОГІЧНА КЛІНІКА, ТОВ",
        "postalCode":"79013",
        "address":"м. Львів, вул. Глибока, 4",
        "coordinates":"49.843747,24.032212",
        "telephone":"(032) 2377537, (032) 2377565",
        "email":"parodent1@gmail.com",
        "website":"www.parodent.com.ua"
    },
    {
        "name":"ПЕРЛА, ПП",
        "postalCode":"79057",
        "address":"м. Львів, вул. Коновальця, 103, оф. 507",
        "coordinates":"49.868308,24.050924",
        "telephone":"(067) 6714915, (032) 2375135, (067) 9309683",
        "email":"perla03@ukr.net",
        "info":"Стоматологічні клініки і центри"
    },
    {
        "name":"ПЕРЛИНА, СТОМАТОЛОГІЧНА КЛІНІКА",
        "postalCode":"79007",
        "address":"м. Львів, вул. Наливайка, 9",
        "coordinates":"49.842610,24.024190",
        "telephone":"(032) 2444024",
        "email":"perlynaclinic@gmail.com",
        "website":"http://perlyna-clinic.com.ua",
        "info":"Регулярні візити до стоматолога - запорука гарної усмішки та своєчасного виявлення та лікування карієсу."
    },
    {
        "name":"ПЕРЛИНА-ЕСТЕТ, СТОМАТОЛОГІЧНА КЛІНІКА",
        "owner":"ПЕРЛИНА-ЕСТЕТ, ПП",
        "postalCode":"79053",
        "address":"м. Львів, вул. Княгині Ольги, 63, к. 3",
        "coordinates":"49.809146,24.000253",
        "telephone":"(032) 2301421",
        "email":"Slavik@network.lviv.ua",
        "website":"www.perlyna-estet.lviv.ua",
        "info":"Стоматологічні послуги: терапевтична стоматологія, ортопедична стоматологія, ортодонтія, стоматолог, реставрація, брекет-системи, лікування зуба, професійна гігієна. Профілактика:"
    },
    {
        "name":"ПЕРСОНА-ЛЮКС, СТОМАТОЛОГІЧНА КЛІНІКА, ПП",
        "postalCode":"79066",
        "address":"м. Львів, просп. Червоної Калини, 59",
        "coordinates":"49.796804,24.054232",
        "telephone":"(032) 2273277",
        "email":"persona059@gmail.com",
        "info":"Стоматологічні клініки і центри"
    },
    {
        "name":"ПЕРФЕКТ-ДЕНТ, СТОМАТОЛОГІЧНА КЛІНІКА, ПП",
        "postalCode":"79005",
        "address":"м. Львів, вул. Павлова, 12, к. 2",
        "coordinates":"49.79614,24.0542432",
        "telephone":"(032) 2750749",
        "email":"perfectdentclinic@gmail.com",
        "website":"www.perfectdent.lviv.ua",
        "info":"Стоматологічні клініки і центри"
    },
    {
        "name":"ПЛАТИНУМ, МЕДИЧНИЙ ЦЕНТР",
        "postalCode":"79016",
        "address":"м. Львів, вул. Кревецького, 2",
        "coordinates":"49.790904,24.053232",
        "telephone":"(096) 2668522, (098) 7178094",
        "email":"mmifff2@gmail.com",
        "info":"Стоматологічні послуги, лікування,хірургія, ортодонтія, імплантологія,протезування,дитяча стоматологія."
    },
    {
        "name":"ПРИВАТНА СТОМАТОЛОГІЧНА КЛІНІКА ДОКТОРА МУРЕНЕЦЬ А. В.",
        "postalCode":"79011",
        "address":"м. Львів, вул. Франка, 83, к. 4",
        "coordinates":"49.766404,24.052732",
        "telephone":"(032) 2255419, (097) 1397639",
        "email":"angela543@gmail.com",
        "info":"Стоматологічні клініки і центри"
    },
    {
        "name":"ПРИВАТНИЙ КАБІНЕТ СТОМАТОЛОГА ВОЗНЮК І. С.",
        "postalCode":"79020",
        "address":"м. Львів, вул. Панча, 5",
        "coordinates":"49.796098,24.058762",
        "telephone":"(032) 2530707",
        "info":"У стоматологічній клініці доктора Буня надаються стоматологічні послуги, що включають постановку брекет-систем, протезування зубів усіх видів, лікування зубів за"
    },
    {
        "name":"ПРИВАТНИЙ СТОМАТОЛОГІЧНИЙ КАБІНЕТ",
        "owner":"МОРОЗОВИЧ М. Н., ПП",
        "postalCode":"79005",
        "address":"м. Львів, вул. Мартовича, 5, к. 1",
        "coordinates":"49.906804,24.054094",
        "telephone":"(032) 2613116, (067) 6713058"
    },
    {
        "name":"ПРИВАТНИЙ СТОМАТОЛОГІЧНИЙ КАБІНЕТ ХРИСТИНЕНКО ОЛЕНИ",
        "postalCode":"79039",
        "address":"м. Львів, вул. Єрошенка, 11",
        "coordinates":"49.796804,24.054232",
        "telephone":"(032) 2335309"
    },
    {
        "name":"ПРОФІДЕНТ-ПЛЮС, СТОМАТОЛОГІЧНА КЛІНІКА, ПП",
        "postalCode":"79044",
        "address":"м. Львів, вул. Єфремова, 85",
        "coordinates":"49.796844,24.054242",
        "telephone":"(032) 2401740, (050) 3719600",
        "email":"sale@profident-plus.lviv.ua",
        "website":"www.profident-plus.lviv.ua"
    },
    {
        "name":"РІКОТА, СТОМАТОЛОГІЧНА КЛІНІКА У ЛЬВОВІ",
        "postalCode":"79026",
        "address":"м. Львів, вул. Володимира Великого, 31",
        "coordinates":"49.796824,24.854232",
        "telephone":"(032) 2340214, (032) 2340215, (032) 2340510",
        "email":"office@rikota.com.ua",
        "website":"www.rikota.com.ua",
        "info":"Рікота – Стоматологічна клініка у Львові. «Рікота» – це клініка, яка сфокусована, в першу чергу на естетичній стоматології. Ми не просто лікуємо зуби, а покращуємо вигляд"
    },
    {
        "name":"СІМДЕНТ, СТОМАТОЛОГІЧНА КЛІНІКА",
        "postalCode":"79053",
        "address":"м. Львів, вул. Перфецького, 14",
        "coordinates":"49.796504,24.05422",
        "telephone":"(032) 2535677, (068) 3535677",
        "email":"info@simdent.lviv.ua",
        "website":"http://simdent.lviv.ua/",
        "info":"- Відбілювання - Вініри - Детальні імпланти - Дитяча стоматологія - Загальні послуги - Захворювання ясен - Зубні пломби - Коронки та мости - Косметичне лікування - Лікування"
    },
    {
        "name":"СІМЕЙНА КЛІНІКА",
        "postalCode":"79014",
        "address":"м. Львів, вул. Личаківська, 122, к. 1",
        "coordinates":"49.790944,24.050982",
        "telephone":"(032) 2257045",
        "info":"Стоматологічні клініки і центри"
    },
    {
        "name":"САНОДЕНТ, СТОМАТОЛОГІЧНА КЛІНІКА",
        "postalCode":"79008",
        "address":"м. Львів, вул. Галицька, 15",
        "coordinates":"49.796124,24.054032",
        "telephone":"(067) 7305072",
        "email":"tanya.temirova@yahoo.com",
        "info":"Стоматологічні послуги, естетична стоматологія, зуботехнік, зубний лікар, ортопедія, стоматолог Львів, ортопедична стоматологія, протезування, поставити протези, ортодонт,"
    },
    {
        "name":"СВІТ ПОСМІШКИ, СТОМАТОЛОГІЧНА КЛІНІКА",
        "postalCode":"79017",
        "address":"м. Львів, вул. Тарнавського, 109",
        "coordinates":"49.796054,24.051232",
        "telephone":"(032) 2602810"
    },
    {
        "name":"СИМБІОТИКА, КЛІНІКА СТОМАТОЛОГІЇ",
        "owner":"КЛІНІКА СТОМАТОЛОГІЇ СИМБІОТИКА",
        "postalCode":"79011",
        "address":"м. Львів, вул. Кубійовича, 29",
        "coordinates":"49.796044,24.051332",
        "telephone":"(032) 2760798, (067) 2244001",
        "email":"symbiotyka@gmail.com",
        "website":"www.symbiotyka.com",
        "info":"Клініка стоматології Симбіотика у Львові, це високотехнологічна стоматологія із повним спектром стоматологічного лікування та діагностики. Проводяться лікування"
    },
    {
        "name":"СИМЕТРИКА, CТОМАТОЛОГІЧНА КЛІНІКА",
        "postalCode":"79000",
        "address":"м. Львів, вул. Щирецька, 36",
        "coordinates":"49.796855,24.051132",
        "telephone":"(097) 2904333, (032) 2904333",
        "email":"symmetricalviv@gmail.com",
        "website":"http://symmetrica.com.ua/",
        "info":"- Хірургічна стоматологія; - Ортопедія; - Імплантологія; - Ортодонтичне лікування; - Ендодонтія; - Естетична та терапевтична стоматологія; - Парадонтологія; - Профілактика та гігієна; - Рентгендіагностика"
    },
    {
        "name":"СОНАТА-ПЛЮС, СТОМАТОЛОГІЯ",
        "owner":"СОНАТА-ПЛЮС, ТОВ",
        "postalCode":"79019",
        "address":"м. Львів, вул. Сніжна, 6, к. 1а",
        "coordinates":"49.706804,24.054552",
        "telephone":"(032) 2750753, (097) 6531976",
        "email":"sonata_plus@ukr.net",
        "info":"Стоматологія «Соната-Плюс» пропонує: - безкоштовні консультації кваліфікованих лікарів-стоматологів - безболісне лікування та профілактику - всі види стоматологічного"
    },
    {
        "name":"СОФІЯ, СТОМАТОЛОГІЧНА КЛІНІКА",
        "postalCode":"79000",
        "address":"м. Львів, вул. Шевченка, 8/1",
        "coordinates":"49.796834,24.084232",
        "telephone":"(032) 2358151, (067) 6735625",
        "email":"sofiaparo@ukr.net",
        "website":"http://sophia-dent.com/"
    },
    {
        "name":"СТОМАТОЛОГІЧНА КЛІНІКА",
        "owner":"ТЕРЛИЧ І. І., ПП",
        "postalCode":"79044",
        "address":"м. Львів, вул. Княгині Ольги, 3а",
        "coordinates":"49.798704,24.123432",
        "telephone":"(032) 2402095"
    },
    {
        "name":"СТОМАТОЛОГІЧНА КЛІНІКА",
        "owner":"ДУДОК, ПП",
        "postalCode":"79049",
        "address":"м. Львів, вул. Трильовського, 23",
        "coordinates":"49.126804,24.904232",
        "telephone":"(032) 2416538, (096) 7747614",
        "email":"v.dmyterko.m.d@gmail.com",
        "info":"Наші послуги: - Комп’ютерна діагностика - Хірургічне лікування - Терапевтичне лікування - Імплантологічне лікування - Ортопедичне лікування - Ортодонтія - Відбілювання зубів - Комплексна гігієна"
    },
    {
        "name":"СТОМАТОЛОГІЧНА КЛІНІКА",
        "postalCode":"79000",
        "address":"м. Львів, вул. Хімічна",
        "coordinates":"49.796824,24.064232",
        "telephone":"(097) 3318535, (093) 2444412",
        "info":"Обираючи нашу клініку, Ви обираєте: - безболісне лікування та профілактику захворювань зубів, -всі види стоматологічного лікування та протезування, - сучасні лікувальні"
    },
    {
        "name":"СТОМАТОЛОГІЧНА КЛІНІКА ГАТАЛИ ОКСАНИ ЄВГЕНІВНИ",
        "postalCode":"79005",
        "address":"м. Львів, вул. Левицького, 42",
        "coordinates":"49.796804,24.054232",
        "telephone":"(097) 9039083, (099) 1808263",
        "website":"www.gatala-clinic.info",
        "info":"Стоматологічні клініки і центри"
    },
    {
        "name":"СТОМАТОЛОГІЧНА КЛІНІКА ДОКТОРА БУНЯ",
        "postalCode":"79008",
        "address":"м. Львів, вул. Шевська, 1",
        "coordinates":"49.796504,24.054232",
        "telephone":"(032) 2356321, (067) 3146568, (066) 4192517",
        "email":"dokbun@mail.ru",
        "website":"www.stomatbun.com.ua",
        "info":"Наша клініка надає весь спекрт сучасних стоматологічних послуг, а саме: - лікування зубів (сучасними матеріалами та методами) - протезування зубів (всі види) - імплантація"
    },
    {
        "name":"СТОМАТОЛОГІЧНА КЛІНІКА ДОКТОРА ЧУГАЙ, ПП",
        "postalCode":"79005",
        "address":"м. Львів, вул. Скельна, 1, к. 3",
        "coordinates":"49.796984,24.057632",
        "telephone":"(032) 2750049, (032) 2763219",
        "email":"chuhaypp@rambler.ru",
        "info":"Стоматологічні клініки і центри"
    },
    {
        "name":"СТОМАТОЛОГІЧНА КЛІНІКА ДР. КОЦОВСЬКИХ",
        "postalCode":"79020",
        "address":"м. Львів, вул. Панча, 5",
        "coordinates":"49.796084,24.050932",
        "telephone":"(032) 2455073, (093) 7638960, (050) 6119121",
        "email":"info@kotsovskyh.com.ua",
        "website":"www.kotsovskiy.com.ua",
        "info":"НАШІ ПОСЛУГИ - Діагностика - Профілактика - Дитяча стоматологія - Терапевтична стоматологія - Ортопедична стоматологія - Естетична стоматологія - Знечулення - Пародонтологія - Ортодонтія"
    },
    {
        "name":"СТОМАТОЛОГІЧНА КЛІНІКА ЛАРИСИ ЛІТИНСЬКОЇ",
        "postalCode":"79017",
        "address":"м. Львів, вул. Левицького, 60",
        "coordinates":"49.896804,24.654232",
        "telephone":"(032) 2752940, (096) 7243408, (063) 2318827",
        "website":"www.drlitynska.com.ua"
    },
    {
        "name":"СТОМАТОЛОГІЧНА КЛІНІКА ОВЧАРА",
        "postalCode":"79007",
        "address":"м. Львів, вул. Водна, 3/1",
        "coordinates":"49.796604,24.053232",
        "telephone":"(032) 2616166, (097) 5950123",
        "email":"office@dentist32.com.ua",
        "info":"Ортодонтія | Стоматологічні клініки і центри | Стоматологічні поліклініки"
    },
    {
        "name":"СТОМАТОЛОГІЧНА КЛІНІКА ОЛЕНИ ЮРЧАК",
        "owner":"ЮРЧАК О., ФО-П",
        "postalCode":"79018",
        "address":"м. Львів, вул. Степанівни, 35а",
        "coordinates":"49.79644,24.055432",
        "telephone":"(096) 2865511, (050) 3704410"
    },
    {
        "name":"СТОМАТОЛОГІЧНА КЛІНІКА ПРОФЕСОРА ЕЛЬВІРИ БЕЗВУШКО",
        "postalCode":"79005",
        "address":"м. Львів, вул. Руставелі, 32, к. 1",
        "coordinates":"49.796404,24.054532",
        "telephone":"(032) 2767638, (093) 4836354, (097) 6828382",
        "email":"elvira.bezvushko@gmail.com",
        "website":"http://elvirabezvushko.com.ua",
        "info":"- профілактика карієсу та захворювань пародонта; - лікування карієсу зубів у дітей та дорослих; - професійна гігієна ротової порожнини; - лікування захворювань пародонта; -"
    },
    {
        "name":"СТОМАТОЛОГІЧНА КЛІНІКА УХАЧА Р. Т.",
        "postalCode":"79005",
        "address":"м. Львів, пл. Маланюка, 2",
        "coordinates":"49.896804,24.054532",
        "telephone":"(032) 2445617, (067) 3136269",
        "info":"Стоматологічні клініки і центри"
    },
    {
        "name":"СТОМАТОЛОГІЧНА ПОЛІКЛІНІКА ЛЬВІВСЬКОЇ ЗАЛІЗНИЦІ",
        "postalCode":"79052",
        "address":"м. Львів, вул. Повітряна, 99",
        "coordinates":"49.796504,24.054632",
        "telephone":"(032) 2677486, (032) 2260243",
        "website":"http://166642.ui.ua",
        "info":"Стоматологічні поліклініки"
    },
    {
        "name":"СТОМАТОЛОГІЧНИЙ ЗАКЛАД",
        "postalCode":"79018",
        "address":"м. Львів, вул. Васильківського, 7",
        "coordinates":"49.746804,24.654232",
        "telephone":"(032) 2375284",
        "info":"Стоматологічні клініки і центри."
    },
    {
        "name":"СТОМАТОЛОГІЧНИЙ КАБІНЕТ",
        "postalCode":"79018",
        "address":"м. Львів, вул. Головацького, 11а",
        "coordinates":"49.790804,24.055432",
        "telephone":"(050) 5089318, (093) 4467707, (098) 7665830"
    },
    {
        "name":"СТОМАТОЛОГІЧНИЙ КАБІНЕТ",
        "owner":"РОМАНІВ Л. Я., ПП",
        "postalCode":"79005",
        "address":"м. Львів, вул. Кльоновича, 6",
        "coordinates":"49.796854,24.054632",
        "telephone":"(032) 2255104"
    },
    {
        "name":"СТОМАТОЛОГІЧНИЙ КАБІНЕТ",
        "owner":"ЯКУБИЧ, ПП",
        "postalCode":"79049",
        "address":"м. Львів, вул. Драгана, 1",
        "coordinates":"49.796874,24.057232",
        "telephone":"(032) 2273342",
        "info":"Стоматологічні клініки і центри"
    },
    {
        "name":"СТОМАТОЛОГІЧНИЙ КАБІНЕТ ВЕРБОВЕЦЬКОГО І. В.",
        "postalCode":"79011",
        "address":"м. Львів, вул. Снопківська, 8",
        "coordinates":"49.796805,24.054632",
        "telephone":"(032) 2760433",
        "info":"Стоматологічні клініки і центри"
    },
    {
        "name":"СТОМАТОЛОГІЧНИЙ КАБІНЕТ ДОКТОРІВ СИХОВСЬКА Л. А., ОНУТЧАК Н. Д.",
        "postalCode":"79016",
        "address":"м. Львів, вул. Декарта, 6",
        "coordinates":"49.796803,24.054252",
        "telephone":"(032) 2970878",
        "info":"Центри та клініки | Стоматологічні клініки і центри"
    },
    {
        "name":"СТОМАТОЛОГІЧНИЙ КАБІНЕТ, ПП",
        "postalCode":"79068",
        "address":"м. Львів, вул. Тичини, 14",
        "coordinates":"49.796808,24.054230",
        "telephone":"(032) 2943851, (032) 2935136",
        "email":"karina600@yandex.ru",
        "info":"Стоматологічні клініки і центри"
    },
    {
        "name":"СТОМАТОЛОГІЧНИЙ КАБІНЕТ, ПП",
        "postalCode":"79011",
        "address":"м. Львів, вул. Кубійовича, 3",
        "coordinates":"49.796801,24.054239",
        "telephone":"(032) 2765033",
        "info":"Стоматологічні клініки і центри"
    },
    {
        "name":"СТОМАТОЛОГІЧНИЙ КАБІНЕТ, ПП",
        "postalCode":"79005",
        "address":"м. Львів, вул. Шевченка, 11, к. 7",
        "coordinates":"49.796803,24.054238",
        "telephone":"(032) 2355608, (032) 2355411",
        "info":"Стоматологічні клініки і центри"
    },
    {
        "name":"СТОМАТОЛОГІЧНИЙ КАБІНЕТ, ПП",
        "postalCode":"79013",
        "address":"м. Львів, вул. Брюлова, 6",
        "coordinates":"49.796800,24.054234",
        "telephone":"(032) 2613437"
    },
    {
        "name":"СТОМАТОЛОГІЯ",
        "postalCode":"79016",
        "address":"м. Львів, вул. Марка Вовчка, 22",
        "coordinates":"49.796804,24.054237",
        "telephone":"(032) 2335654, (050) 1878917, (050) 5060017",
        "email":"mila-na@bigmir.net"
    },
    {
        "name":"СТОМАТОЛОГІЯ",
        "postalCode":"79066",
        "address":"м. Львів, вул. Кавалерідзе, 16",
        "coordinates":"49.796806,24.054238",
        "telephone":"(097) 1582843",
        "email":"omeljuh.slavik@gmail.com",
        "info":"- професійна гігієна - реставрація зубів - ендодонтичне лікування - ортопедичне лікування"
    },
    {
        "name":"СТОМАТОЛОГІЯ",
        "postalCode":"79044",
        "address":"м. Львів, вул. Горбачевського, 15",
        "coordinates":"49.796812,24.054290",
        "telephone":"(032) 2452406",
        "info":"Стоматологічні клініки і центри"
    },
    {
        "name":"СТОМАТОЛОГІЯ",
        "postalCode":"79019",
        "address":"м. Львів, вул. Лазнева, 3",
        "coordinates":"49.796098,24.054678",
        "telephone":"(032) 2986630",
        "info":"Стоматологічні клініки і центри"
    },
    {
        "name":"СТОМАТОЛОГІЯ 8",
        "postalCode":"79066",
        "address":"м. Львів, вул. Антоненка-Давидовича, 8а",
        "coordinates":"49.796765,24.054123",
        "telephone":"(032) 2320270, (093) 0067386"
    },
    {
        "name":"СТОМАТОЛОГІЯ ДОКТОРА САЛАМАХИ ОЛЕГА ЯРОСЛАВОВИЧА",
        "postalCode":"79022",
        "address":"м. Львів, вул. Володимира Великого, 38",
        "coordinates":"49.794567,24.050987",
        "telephone":"(067) 7831812, (067) 7908964",
        "email":"salamakhaoleg75@gmail.com",
        "info":"Стоматологічні послуги."
    },
    {
        "name":"СТОМАТОЛОГІЯ ЗДОБУТОК ВКП",
        "postalCode":"79032",
        "address":"м. Львів, вул. Вашингтона, 7",
        "coordinates":"49.796878,24.054203",
        "telephone":"(032) 2700088",
        "info":"Стоматологічні клініки і центри"
    },
    {
        "name":"СТОМАТПРОФІ, КЛІНІКА ЕСТЕТИЧНОЇ СТОМАТОЛОГІЇ",
        "postalCode":"79005",
        "address":"м. Львів, вул. Дорошенка, 31",
        "coordinates":"49.796823,24.054254",
        "telephone":"(032) 2613739, (067) 5900812",
        "email":"komanda@stomatprofy.com.ua",
        "website":"http://stomatprofy.com.ua/"
    },
    {
        "name":"СТОМЕКС, СТОМАТОЛОГІЧНИЙ КАБІНЕТ, ПП",
        "postalCode":"79066",
        "address":"м. Львів, вул. Сихівська, 28, к. 3",
        "coordinates":"49.796890,24.0542133",
        "telephone":"(032) 2218932",
        "info":"Стоматологічні клініки і центри"
    },
    {
        "name":"ТРИ В, СТОМАТОЛОГІЧНА ФІРМА",
        "owner":"ТРИ В, ТОВ",
        "postalCode":"79049",
        "address":"м. Львів, вул. Драгана, 1, оф. 76",
        "coordinates":"49.796704,24.054290",
        "telephone":"(032) 2449559, (096) 5361515, (067) 9447117",
        "email":"threev@lviv.farlep.net",
        "info":"Надаються послуги з терапевтичної, ортопедичної стоматології, ортодонтії. Послуги в кредит."
    },
    {
        "name":"УЛЮБЛЕНИЙ ДОКТОР, СТОМАТОЛОГІЧНА КЛІНІКА",
        "postalCode":"79014",
        "address":"м. Львів, вул. Личаківська, 98",
        "coordinates":"49.837425,24.057276",
        "telephone":"(032) 2756286, (032) 2255732",
        "email":"pigovichclinik@gmail.com"
    },
    {
        "name":"ЧЕРЕПАНИЧ, СТОМАТОЛОГІЯ ДЛЯ МОЛОДІ",
        "postalCode":"79000",
        "address":"м. Львів, вул. Дорога Кривчицька, 19",
        "coordinates":"49.842382,24.069107",
        "telephone":"(097) 7703330",
        "email":"office@cherepanych.com.ua",
        "website":"http://cherepanych.com.ua/"
    },
    {
        "name":"ХОРОЗ-ДЕНТАЛ",
        "postalCode":"79013",
        "address":"м. Львів, вул. Зелена, 208а",
        "coordinates":"49.810268,24.060707",
        "telephone":"(067) 6793701",
        "info":"Стоматологічні матеріали та обладнання"
    }
]